{
"type": "FeatureCollection",
"name": "_12Pub_Victorian_Hospitals_2012",
"crs": { "type": "name", "properties": { "name": "urn:ogc:def:crs:OGC:1.3:CRS84" } },
"features": [
{ "type": "Feature", "properties": { "Name": "Alexandra District Hospital", "description": null, "altitudeMode": "relativeToGround", "extrude": 1, "Town": "Alexandra", "Facility_Name": "Alexandra District Hospital", "Network_HS": "Hume", "Region": "Hume", "Postcode": "3714", "METRORUR": "Rural", "Address": "20 Cooper Street", "CAMPUS": "3010" }, "geometry": { "type": "Point", "coordinates": [ 145.715007, -37.195129 ] } },
{ "type": "Feature", "properties": { "Name": "Alpine Health, Bright", "description": null, "altitudeMode": "relativeToGround", "extrude": 1, "Town": "Bright", "Facility_Name": "Alpine Health, Bright", "Network_HS": "Hume", "Region": "Hume", "Postcode": "3741", "METRORUR": "Rural", "Address": "42 Cobden St", "CAMPUS": "1882" }, "geometry": { "type": "Point", "coordinates": [ 146.966116, -36.733116 ] } },
{ "type": "Feature", "properties": { "Name": "Alpine Health, Mt Beauty", "description": null, "altitudeMode": "relativeToGround", "extrude": 1, "Town": "Mt Beauty", "Facility_Name": "Alpine Health, Mt Beauty", "Network_HS": "Hume", "Region": "Hume", "Postcode": "3699", "METRORUR": "Rural", "Address": "2 Hollonds St", "CAMPUS": "1883" }, "geometry": { "type": "Point", "coordinates": [ 147.16965, -36.743313 ] } },
{ "type": "Feature", "properties": { "Name": "Alpine Health, Myrtleford", "description": null, "altitudeMode": "relativeToGround", "extrude": 1, "Town": "Myrtleford", "Facility_Name": "Alpine Health, Myrtleford", "Network_HS": "Hume", "Region": "Hume", "Postcode": "3737", "METRORUR": "Rural", "Address": "30 O'Donnell Avenue", "CAMPUS": "1881" }, "geometry": { "type": "Point", "coordinates": [ 146.727539, -36.555503 ] } },
{ "type": "Feature", "properties": { "Name": "Bairnsdale Regional Health Service", "description": null, "altitudeMode": "relativeToGround", "extrude": 1, "Town": "Bairnsdale", "Facility_Name": "Bairnsdale Regional Health Service", "Network_HS": "Gippsland", "Region": "Gippsland", "Postcode": "3875", "METRORUR": "Rural", "Address": "122 Day St", "CAMPUS": "1040" }, "geometry": { "type": "Point", "coordinates": [ 147.606843, -37.830852 ] } },
{ "type": "Feature", "properties": { "Name": "Ballarat Health Services", "description": null, "altitudeMode": "relativeToGround", "extrude": 1, "Town": "Ballarat", "Facility_Name": "Ballarat Health Services", "Network_HS": "Grampians", "Region": "Grampians", "Postcode": "3350", "METRORUR": "Rural", "Address": "1 Drummond Street North", "CAMPUS": "2010" }, "geometry": { "type": "Point", "coordinates": [ 143.847205, -37.560211 ] } },
{ "type": "Feature", "properties": { "Name": "Ballarat Health Services, Queen Elizabeth Campus", "description": null, "altitudeMode": "relativeToGround", "extrude": 1, "Town": "Ballarat", "Facility_Name": "Ballarat Health Services, Queen Elizabeth Campus", "Network_HS": "Grampians", "Region": "Grampians", "Postcode": "3350", "METRORUR": "Rural", "Address": "102 Ascot St South", "CAMPUS": "2070" }, "geometry": { "type": "Point", "coordinates": [ 143.843718, -37.563595 ] } },
{ "type": "Feature", "properties": { "Name": "Barwon Health", "description": null, "altitudeMode": "relativeToGround", "extrude": 1, "Town": "Geelong", "Facility_Name": "Barwon Health", "Network_HS": "Barwon South Western", "Region": "Barwon South Western", "Postcode": "3220", "METRORUR": "Rural", "Address": "272-322 Ryrie Street", "CAMPUS": "2050" }, "geometry": { "type": "Point", "coordinates": [ 144.364995, -38.151041 ] } },
{ "type": "Feature", "properties": { "Name": "Barwon Health, Grace McKellar Centre", "description": null, "altitudeMode": "relativeToGround", "extrude": 1, "Town": "Geelong", "Facility_Name": "Barwon Health, Grace McKellar Centre", "Network_HS": "Barwon South Western", "Region": "Barwon South Western", "Postcode": "3215", "METRORUR": "Rural", "Address": "45-95 Ballarat Rd", "CAMPUS": "3040" }, "geometry": { "type": "Point", "coordinates": [ 144.335123, -38.119739 ] } },
{ "type": "Feature", "properties": { "Name": "Bass Coast Regional Health", "description": null, "altitudeMode": "relativeToGround", "extrude": 1, "Town": "Wonthaggi", "Facility_Name": "Bass Coast Regional Health", "Network_HS": "Gippsland", "Region": "Gippsland", "Postcode": "3995", "METRORUR": "Rural", "Address": "235 Graham Street", "CAMPUS": "1670" }, "geometry": { "type": "Point", "coordinates": [ 145.582966, -38.607106 ] } },
{ "type": "Feature", "properties": { "Name": "Beaufort & Skipton HS, Beaufort", "description": null, "altitudeMode": "relativeToGround", "extrude": 1, "Town": "Beaufort", "Facility_Name": "Beaufort & Skipton HS, Beaufort", "Network_HS": "Grampians", "Region": "Grampians", "Postcode": "3373", "METRORUR": "Rural", "Address": "28 Havelock Street", "CAMPUS": "3120" }, "geometry": { "type": "Point", "coordinates": [ 143.382292, -37.431038 ] } },
{ "type": "Feature", "properties": { "Name": "Beaufort & Skipton HS, Skipton", "description": null, "altitudeMode": "relativeToGround", "extrude": 1, "Town": "Skipton", "Facility_Name": "Beaufort & Skipton HS, Skipton", "Network_HS": "Grampians", "Region": "Grampians", "Postcode": "3361", "METRORUR": "Rural", "Address": "2 Blake St", "CAMPUS": "2230" }, "geometry": { "type": "Point", "coordinates": [ 143.3679, -37.68478 ] } },
{ "type": "Feature", "properties": { "Name": "Beechworth Health Service", "description": null, "altitudeMode": "relativeToGround", "extrude": 1, "Town": "Beechworth", "Facility_Name": "Beechworth Health Service", "Network_HS": "Hume", "Region": "Hume", "Postcode": "3747", "METRORUR": "Rural", "Address": "5 Warner Road", "CAMPUS": "4460" }, "geometry": { "type": "Point", "coordinates": [ 146.690913, -36.35028 ] } },
{ "type": "Feature", "properties": { "Name": "Benalla & District Memorial Hospital", "description": null, "altitudeMode": "relativeToGround", "extrude": 1, "Town": "Benalla", "Facility_Name": "Benalla & District Memorial Hospital", "Network_HS": "Hume", "Region": "Hume", "Postcode": "3672", "METRORUR": "Rural", "Address": "45-63 Coster Street", "CAMPUS": "4050" }, "geometry": { "type": "Point", "coordinates": [ 145.995509, -36.555061 ] } },
{ "type": "Feature", "properties": { "Name": "Bendigo Health Care Group, Anne Caudle", "description": null, "altitudeMode": "relativeToGround", "extrude": 1, "Town": "Bendigo", "Facility_Name": "Bendigo Health Care Group, Anne Caudle", "Network_HS": "Loddon Mallee", "Region": "Loddon Mallee", "Postcode": "3550", "METRORUR": "Rural", "Address": "100 Barnard St", "CAMPUS": "1022" }, "geometry": { "type": "Point", "coordinates": [ 144.279913, -36.749757 ] } },
{ "type": "Feature", "properties": { "Name": "Bendigo Health Care Group, Bendigo", "description": null, "altitudeMode": "relativeToGround", "extrude": 1, "Town": "Bendigo", "Facility_Name": "Bendigo Health Care Group, Bendigo", "Network_HS": "Loddon Mallee", "Region": "Loddon Mallee", "Postcode": "3550", "METRORUR": "Rural", "Address": "62 Lucan St", "CAMPUS": "1021" }, "geometry": { "type": "Point", "coordinates": [ 144.283359, -36.748624 ] } },
{ "type": "Feature", "properties": { "Name": "Boort District Health", "description": null, "altitudeMode": "relativeToGround", "extrude": 1, "Town": "Boort", "Facility_Name": "Boort District Health", "Network_HS": "Loddon Mallee", "Region": "Loddon Mallee", "Postcode": "3537", "METRORUR": "Rural", "Address": "31 Kiniry Street", "CAMPUS": "3060" }, "geometry": { "type": "Point", "coordinates": [ 143.727093, -36.112535 ] } },
{ "type": "Feature", "properties": { "Name": "Casterton Memorial Hospital", "description": null, "altitudeMode": "relativeToGround", "extrude": 1, "Town": "Casterton", "Facility_Name": "Casterton Memorial Hospital", "Network_HS": "Barwon South Western", "Region": "Barwon South Western", "Postcode": "3311", "METRORUR": "Rural", "Address": "63-69 Russell Street", "CAMPUS": "2090" }, "geometry": { "type": "Point", "coordinates": [ 141.392728, -37.590693 ] } },
{ "type": "Feature", "properties": { "Name": "Central Gippsland Health Service, Maffra", "description": null, "altitudeMode": "relativeToGround", "extrude": 1, "Town": "Maffra", "Facility_Name": "Central Gippsland Health Service, Maffra", "Network_HS": "Gippsland", "Region": "Gippsland", "Postcode": "3860", "METRORUR": "Rural", "Address": "48 Kent St", "CAMPUS": "2580" }, "geometry": { "type": "Point", "coordinates": [ 146.983206, -37.960965 ] } },
{ "type": "Feature", "properties": { "Name": "Central Gippsland Health Service, Sale", "description": null, "altitudeMode": "relativeToGround", "extrude": 1, "Town": "Sale", "Facility_Name": "Central Gippsland Health Service, Sale", "Network_HS": "Gippsland", "Region": "Gippsland", "Postcode": "3850", "METRORUR": "Rural", "Address": "155 Guthridge Parade", "CAMPUS": "2060" }, "geometry": { "type": "Point", "coordinates": [ 147.080679, -38.110019 ] } },
{ "type": "Feature", "properties": { "Name": "Cobram District Health", "description": null, "altitudeMode": "relativeToGround", "extrude": 1, "Town": "Cobram", "Facility_Name": "Cobram District Health", "Network_HS": "Hume", "Region": "Hume", "Postcode": "3644", "METRORUR": "Rural", "Address": "24-32 Broadway Street", "CAMPUS": "5120" }, "geometry": { "type": "Point", "coordinates": [ 145.651292, -35.915888 ] } },
{ "type": "Feature", "properties": { "Name": "Cohuna District Hospital", "description": null, "altitudeMode": "relativeToGround", "extrude": 1, "Town": "Cohuna", "Facility_Name": "Cohuna District Hospital", "Network_HS": "Loddon Mallee", "Region": "Loddon Mallee", "Postcode": "3568", "METRORUR": "Rural", "Address": "144-158 King George Street", "CAMPUS": "2130" }, "geometry": { "type": "Point", "coordinates": [ 144.214444, -35.799279 ] } },
{ "type": "Feature", "properties": { "Name": "Colac Area Health, Colac", "description": null, "altitudeMode": "relativeToGround", "extrude": 1, "Town": "Colac", "Facility_Name": "Colac Area Health, Colac", "Network_HS": "Barwon South Western", "Region": "Barwon South Western", "Postcode": "3250", "METRORUR": "Rural", "Address": "2-28 Connor St", "CAMPUS": "1130" }, "geometry": { "type": "Point", "coordinates": [ 143.582773, -38.340941 ] } },
{ "type": "Feature", "properties": { "Name": "Djerriwarrh Health Services", "description": null, "altitudeMode": "relativeToGround", "extrude": 1, "Town": "Bacchus Marsh", "Facility_Name": "Djerriwarrh Health Services", "Network_HS": "Grampians", "Region": "Grampians", "Postcode": "3340", "METRORUR": "Rural", "Address": "29 Grant Street", "CAMPUS": "3020" }, "geometry": { "type": "Point", "coordinates": [ 144.434794, -37.677716 ] } },
{ "type": "Feature", "properties": { "Name": "Dunmunkle Health Services", "description": null, "altitudeMode": "relativeToGround", "extrude": 1, "Town": "Rupanyup", "Facility_Name": "Dunmunkle Health Services", "Network_HS": "Grampians", "Region": "Grampians", "Postcode": "3388", "METRORUR": "Rural", "Address": "89 Cromie Street", "CAMPUS": "2210" }, "geometry": { "type": "Point", "coordinates": [ 142.631926, -36.636782 ] } },
{ "type": "Feature", "properties": { "Name": "East Grampians Health Service, Ararat", "description": null, "altitudeMode": "relativeToGround", "extrude": 1, "Town": "Ararat", "Facility_Name": "East Grampians Health Service, Ararat", "Network_HS": "Grampians", "Region": "Grampians", "Postcode": "3377", "METRORUR": "Rural", "Address": "9 Girdlestone Street", "CAMPUS": "1101" }, "geometry": { "type": "Point", "coordinates": [ 142.930693, -37.278633 ] } },
{ "type": "Feature", "properties": { "Name": "East Grampians Health Service, Willaura", "description": null, "altitudeMode": "relativeToGround", "extrude": 1, "Town": "Willaura", "Facility_Name": "East Grampians Health Service, Willaura", "Network_HS": "Loddon Mallee", "Region": "Loddon Mallee", "Postcode": "3379", "METRORUR": "Rural", "Address": "21 Delacombe Way", "CAMPUS": "1102" }, "geometry": { "type": "Point", "coordinates": [ 142.745767, -37.54634 ] } },
{ "type": "Feature", "properties": { "Name": "East Wimmera Health Service, Birchip", "description": null, "altitudeMode": "relativeToGround", "extrude": 1, "Town": "Birchip", "Facility_Name": "East Wimmera Health Service, Birchip", "Network_HS": "Grampians", "Region": "Grampians", "Postcode": "3483", "METRORUR": "Rural", "Address": "26 Duncan st", "CAMPUS": "4120" }, "geometry": { "type": "Point", "coordinates": [ 142.915891, -35.980167 ] } },
{ "type": "Feature", "properties": { "Name": "East Wimmera Health Service, Charlton", "description": null, "altitudeMode": "relativeToGround", "extrude": 1, "Town": "Charlton", "Facility_Name": "East Wimmera Health Service, Charlton", "Network_HS": "Grampians", "Region": "Grampians", "Postcode": "3525", "METRORUR": "Rural", "Address": "4-8 Menzies St", "CAMPUS": "4130" }, "geometry": { "type": "Point", "coordinates": [ 143.345889, -36.271037 ] } },
{ "type": "Feature", "properties": { "Name": "East Wimmera Health Service, Donald", "description": null, "altitudeMode": "relativeToGround", "extrude": 1, "Town": "Donald", "Facility_Name": "East Wimmera Health Service, Donald", "Network_HS": "Grampians", "Region": "Grampians", "Postcode": "3480", "METRORUR": "Rural", "Address": "Aitken Ave", "CAMPUS": "3190" }, "geometry": { "type": "Point", "coordinates": [ 142.976273, -36.365836 ] } },
{ "type": "Feature", "properties": { "Name": "East Wimmera Health Service, St Arnaud", "description": null, "altitudeMode": "relativeToGround", "extrude": 1, "Town": "St Arnaud", "Facility_Name": "East Wimmera Health Service, St Arnaud", "Network_HS": "Grampians", "Region": "Grampians", "Postcode": "3478", "METRORUR": "Rural", "Address": "52 North Western Road", "CAMPUS": "2480" }, "geometry": { "type": "Point", "coordinates": [ 143.246848, -36.609559 ] } },
{ "type": "Feature", "properties": { "Name": "East Wimmera Health Service, Wycheproof", "description": null, "altitudeMode": "relativeToGround", "extrude": 1, "Town": "Wycheproof", "Facility_Name": "East Wimmera Health Service, Wycheproof", "Network_HS": "Grampians", "Region": "Grampians", "Postcode": "3527", "METRORUR": "Rural", "Address": "19 Grandview St", "CAMPUS": "1560" }, "geometry": { "type": "Point", "coordinates": [ 143.234257, -36.078062 ] } },
{ "type": "Feature", "properties": { "Name": "Echuca Regional Health", "description": null, "altitudeMode": "relativeToGround", "extrude": 1, "Town": "Echuca", "Facility_Name": "Echuca Regional Health", "Network_HS": "Loddon Mallee", "Region": "Loddon Mallee", "Postcode": "3564", "METRORUR": "Rural", "Address": "9-27 Frances Street", "CAMPUS": "2180" }, "geometry": { "type": "Point", "coordinates": [ 144.748297, -36.138225 ] } },
{ "type": "Feature", "properties": { "Name": "Edenhope & District Memorial Hospital", "description": null, "altitudeMode": "relativeToGround", "extrude": 1, "Town": "Edenhope", "Facility_Name": "Edenhope & District Memorial Hospital", "Network_HS": "Grampians", "Region": "Grampians", "Postcode": "3318", "METRORUR": "Rural", "Address": "128-134 Elizabeth Street", "CAMPUS": "3240" }, "geometry": { "type": "Point", "coordinates": [ 141.289727, -37.035202 ] } },
{ "type": "Feature", "properties": { "Name": "Gippsland Southern Health Service, Korumburra", "description": null, "altitudeMode": "relativeToGround", "extrude": 1, "Town": "Korumburra", "Facility_Name": "Gippsland Southern Health Service, Korumburra", "Network_HS": "Gippsland", "Region": "Gippsland", "Postcode": "3950", "METRORUR": "Rural", "Address": "77 Bridge St", "CAMPUS": "2251" }, "geometry": { "type": "Point", "coordinates": [ 145.830051, -38.429995 ] } },
{ "type": "Feature", "properties": { "Name": "Gippsland Southern Health Service, Leongatha", "description": null, "altitudeMode": "relativeToGround", "extrude": 1, "Town": "Leongatha", "Facility_Name": "Gippsland Southern Health Service, Leongatha", "Network_HS": "Gippsland", "Region": "Gippsland", "Postcode": "3953", "METRORUR": "Rural", "Address": "66 Koonawarra Road", "CAMPUS": "2252" }, "geometry": { "type": "Point", "coordinates": [ 145.951294, -38.487266 ] } },
{ "type": "Feature", "properties": { "Name": "Goulbourn Valley Health, Waranga", "description": null, "altitudeMode": "relativeToGround", "extrude": 1, "Town": "Rushworth", "Facility_Name": "Goulbourn Valley Health, Waranga", "Network_HS": "Hume", "Region": "Hume", "Postcode": "3612", "METRORUR": "Rural", "Address": "14 Coyle St", "CAMPUS": "1123" }, "geometry": { "type": "Point", "coordinates": [ 145.008301, -36.587371 ] } },
{ "type": "Feature", "properties": { "Name": "Goulburn Valley Health, Shepparton", "description": null, "altitudeMode": "relativeToGround", "extrude": 1, "Town": "Shepparton", "Facility_Name": "Goulburn Valley Health, Shepparton", "Network_HS": "Hume", "Region": "Hume", "Postcode": "3630", "METRORUR": "Rural", "Address": "2 Graham Street", "CAMPUS": "1121" }, "geometry": { "type": "Point", "coordinates": [ 145.403534, -36.363468 ] } },
{ "type": "Feature", "properties": { "Name": "Goulburn Valley Health Health, Tatura", "description": null, "altitudeMode": "relativeToGround", "extrude": 1, "Town": "Tatura", "Facility_Name": "Goulburn Valley Health Health, Tatura", "Network_HS": "Hume", "Region": "Hume", "Postcode": "3616", "METRORUR": "Rural", "Address": "64 Park St", "CAMPUS": "1122" }, "geometry": { "type": "Point", "coordinates": [ 145.225538, -36.439196 ] } },
{ "type": "Feature", "properties": { "Name": "Hepburn Health Service, Creswick District Hospital", "description": null, "altitudeMode": "relativeToGround", "extrude": 1, "Town": "Creswick", "Facility_Name": "Hepburn Health Service, Creswick District Hospital", "Network_HS": "Grampians", "Region": "Grampians", "Postcode": "3363", "METRORUR": "Rural", "Address": "Napier St", "CAMPUS": "4162" }, "geometry": { "type": "Point", "coordinates": [ 143.891675, -37.420637 ] } },
{ "type": "Feature", "properties": { "Name": "Hepburn Health Service, Daylesford District Hospital", "description": null, "altitudeMode": "relativeToGround", "extrude": 1, "Town": "Daylesford", "Facility_Name": "Hepburn Health Service, Daylesford District Hospital", "Network_HS": "Grampians", "Region": "Grampians", "Postcode": "3460", "METRORUR": "Rural", "Address": "13 Hospital Street", "CAMPUS": "4161" }, "geometry": { "type": "Point", "coordinates": [ 144.145792, -37.337269 ] } },
{ "type": "Feature", "properties": { "Name": "Hesse Rural Health Service", "description": null, "altitudeMode": "relativeToGround", "extrude": 1, "Town": "Winchelsea", "Facility_Name": "Hesse Rural Health Service", "Network_HS": "Barwon South Western", "Region": "Barwon South Western", "Postcode": "3241", "METRORUR": "Rural", "Address": "8 Gosney Street", "CAMPUS": "1500" }, "geometry": { "type": "Point", "coordinates": [ 143.984197, -38.243116 ] } },
{ "type": "Feature", "properties": { "Name": "Heywood Rural Health", "description": null, "altitudeMode": "relativeToGround", "extrude": 1, "Town": "Heywood", "Facility_Name": "Heywood Rural Health", "Network_HS": "Barwon South Western", "Region": "Barwon South Western", "Postcode": "3304", "METRORUR": "Rural", "Address": "21 Barclay Street", "CAMPUS": "2350" }, "geometry": { "type": "Point", "coordinates": [ 141.624949, -38.136972 ] } },
{ "type": "Feature", "properties": { "Name": "Inglewood & District Health Service", "description": null, "altitudeMode": "relativeToGround", "extrude": 1, "Town": "Inglewood", "Facility_Name": "Inglewood & District Health Service", "Network_HS": "Loddon Mallee", "Region": "Loddon Mallee", "Postcode": "3517", "METRORUR": "Rural", "Address": "3 Hospital Street", "CAMPUS": "3370" }, "geometry": { "type": "Point", "coordinates": [ 143.8739, -36.5722 ] } },
{ "type": "Feature", "properties": { "Name": "Kerang District Hospital", "description": null, "altitudeMode": "relativeToGround", "extrude": 1, "Town": "Kerang", "Facility_Name": "Kerang District Hospital", "Network_HS": "Loddon Mallee", "Region": "Loddon Mallee", "Postcode": "3579", "METRORUR": "Rural", "Address": "13-15 Burgoyne Street", "CAMPUS": "2240" }, "geometry": { "type": "Point", "coordinates": [ 143.918118, -35.724048 ] } },
{ "type": "Feature", "properties": { "Name": "Kilmore & District Hospital", "description": null, "altitudeMode": "relativeToGround", "extrude": 1, "Town": "Kilmore", "Facility_Name": "Kilmore & District Hospital", "Network_HS": "Hume", "Region": "Hume", "Postcode": "3764", "METRORUR": "Rural", "Address": "Rutledge Street", "CAMPUS": "3460" }, "geometry": { "type": "Point", "coordinates": [ 144.959261, -37.302375 ] } },
{ "type": "Feature", "properties": { "Name": "Kooweerup Regional Health Service", "description": null, "altitudeMode": "relativeToGround", "extrude": 1, "Town": "Kooweerup", "Facility_Name": "Kooweerup Regional Health Service", "Network_HS": "Gippsland", "Region": "Gippsland", "Postcode": "3981", "METRORUR": "Rural", "Address": "235 Rossiter Road", "CAMPUS": "1480" }, "geometry": { "type": "Point", "coordinates": [ 145.484949, -38.201561 ] } },
{ "type": "Feature", "properties": { "Name": "Kyabram & District Health Services", "description": null, "altitudeMode": "relativeToGround", "extrude": 1, "Town": "Kyabram", "Facility_Name": "Kyabram & District Health Services", "Network_HS": "Loddon Mallee", "Region": "Loddon Mallee", "Postcode": "3620", "METRORUR": "Rural", "Address": "88 Fenaughty Street", "CAMPUS": "1260" }, "geometry": { "type": "Point", "coordinates": [ 145.042636, -36.315459 ] } },
{ "type": "Feature", "properties": { "Name": "Kyneton District Health Service", "description": null, "altitudeMode": "relativeToGround", "extrude": 1, "Town": "Kyneton", "Facility_Name": "Kyneton District Health Service", "Network_HS": "Loddon Mallee", "Region": "Loddon Mallee", "Postcode": "3444", "METRORUR": "Rural", "Address": "7-25 Caroline Chisholm Drive", "CAMPUS": "1270" }, "geometry": { "type": "Point", "coordinates": [ 144.470262, -37.254659 ] } },
{ "type": "Feature", "properties": { "Name": "Latrobe Regional Hospital", "description": null, "altitudeMode": "relativeToGround", "extrude": 1, "Town": "Traralgon", "Facility_Name": "Latrobe Regional Hospital", "Network_HS": "Gippsland", "Region": "Gippsland", "Postcode": "3844", "METRORUR": "Rural", "Address": "Cnr Princes Highway & Village Avenue", "CAMPUS": "2440" }, "geometry": { "type": "Point", "coordinates": [ 146.472655, -38.218176 ] } },
{ "type": "Feature", "properties": { "Name": "Lorne Community Hospital", "description": null, "altitudeMode": "relativeToGround", "extrude": 1, "Town": "Lorne", "Facility_Name": "Lorne Community Hospital", "Network_HS": "Barwon South Western", "Region": "Barwon South Western", "Postcode": "3232", "METRORUR": "Rural", "Address": "1 Albert St", "CAMPUS": "2550" }, "geometry": { "type": "Point", "coordinates": [ 143.980829, -38.545478 ] } },
{ "type": "Feature", "properties": { "Name": "Maldon Hospital", "description": null, "altitudeMode": "relativeToGround", "extrude": 1, "Town": "Maldon", "Facility_Name": "Maldon Hospital", "Network_HS": "Loddon Mallee", "Region": "Loddon Mallee", "Postcode": "3463", "METRORUR": "Rural", "Address": "Chapel Street North", "CAMPUS": "2590" }, "geometry": { "type": "Point", "coordinates": [ 144.063936, -36.992445 ] } },
{ "type": "Feature", "properties": { "Name": "Mallee Track Health & Community Service", "description": null, "altitudeMode": "relativeToGround", "extrude": 1, "Town": "Ouyen", "Facility_Name": "Mallee Track Health & Community Service", "Network_HS": "Loddon Mallee", "Region": "Loddon Mallee", "Postcode": "3490", "METRORUR": "Rural", "Address": "28 Britt Street", "CAMPUS": "2390" }, "geometry": { "type": "Point", "coordinates": [ 142.312878, -35.074701 ] } },
{ "type": "Feature", "properties": { "Name": "Manangatang & District Hospital", "description": null, "altitudeMode": "relativeToGround", "extrude": 1, "Town": "Manangatang", "Facility_Name": "Manangatang & District Hospital", "Network_HS": "Loddon Mallee", "Region": "Loddon Mallee", "Postcode": "3546", "METRORUR": "Rural", "Address": "37 Pioneer Street", "CAMPUS": "2660" }, "geometry": { "type": "Point", "coordinates": [ 142.880739, -35.05105 ] } },
{ "type": "Feature", "properties": { "Name": "Mansfield District Hospital", "description": null, "altitudeMode": "relativeToGround", "extrude": 1, "Town": "Mansfield", "Facility_Name": "Mansfield District Hospital", "Network_HS": "Hume", "Region": "Hume", "Postcode": "3722", "METRORUR": "Rural", "Address": "53 Highett Street", "CAMPUS": "2670" }, "geometry": { "type": "Point", "coordinates": [ 146.086534, -37.05771 ] } },
{ "type": "Feature", "properties": { "Name": "Maryborough District Health Service, Avoca", "description": null, "altitudeMode": "relativeToGround", "extrude": 1, "Town": "Avoca", "Facility_Name": "Maryborough District Health Service, Avoca", "Network_HS": "Loddon Mallee", "Region": "Loddon Mallee", "Postcode": "3467", "METRORUR": "Rural", "Address": "16 Templeton St", "CAMPUS": "1353" }, "geometry": { "type": "Point", "coordinates": [ 143.468242, -37.091642 ] } },
{ "type": "Feature", "properties": { "Name": "Maryborough District Health Service, Dunolly", "description": null, "altitudeMode": "relativeToGround", "extrude": 1, "Town": "Dunolly", "Facility_Name": "Maryborough District Health Service, Dunolly", "Network_HS": "Loddon Mallee", "Region": "Loddon Mallee", "Postcode": "3472", "METRORUR": "Rural", "Address": "20 Havelock St", "CAMPUS": "1352" }, "geometry": { "type": "Point", "coordinates": [ 143.735003, -36.854977 ] } },
{ "type": "Feature", "properties": { "Name": "Maryborough District Health Service, Maryborough", "description": null, "altitudeMode": "relativeToGround", "extrude": 1, "Town": "Maryborough", "Facility_Name": "Maryborough District Health Service, Maryborough", "Network_HS": "Loddon Mallee", "Region": "Loddon Mallee", "Postcode": "3465", "METRORUR": "Rural", "Address": "75-87 Clarendon St", "CAMPUS": "1351" }, "geometry": { "type": "Point", "coordinates": [ 143.737408, -37.044724 ] } },
{ "type": "Feature", "properties": { "Name": "McIvor Health & Community Services", "description": null, "altitudeMode": "relativeToGround", "extrude": 1, "Town": "Heathcote", "Facility_Name": "McIvor Health & Community Services", "Network_HS": "Loddon Mallee", "Region": "Loddon Mallee", "Postcode": "3523", "METRORUR": "Rural", "Address": "39 Hospital Street", "CAMPUS": "1340" }, "geometry": { "type": "Point", "coordinates": [ 144.709705, -36.925604 ] } },
{ "type": "Feature", "properties": { "Name": "Mildura Base Hospital", "description": null, "altitudeMode": "relativeToGround", "extrude": 1, "Town": "Mildura", "Facility_Name": "Mildura Base Hospital", "Network_HS": "Loddon Mallee", "Region": "Loddon Mallee", "Postcode": "3500", "METRORUR": "Rural", "Address": "231-237 Thirteenth Street", "CAMPUS": "2320" }, "geometry": { "type": "Point", "coordinates": [ 142.144556, -34.185033 ] } },
{ "type": "Feature", "properties": { "Name": "Moyne Health Services", "description": null, "altitudeMode": "relativeToGround", "extrude": 1, "Town": "Port Fairy", "Facility_Name": "Moyne Health Services", "Network_HS": "Barwon South Western", "Region": "Barwon South Western", "Postcode": "3284", "METRORUR": "Rural", "Address": "Villiers Street", "CAMPUS": "2450" }, "geometry": { "type": "Point", "coordinates": [ 142.227638, -38.381519 ] } },
{ "type": "Feature", "properties": { "Name": "Mt Alexander Hospital", "description": null, "altitudeMode": "relativeToGround", "extrude": 1, "Town": "Castlemaine", "Facility_Name": "Mt Alexander Hospital", "Network_HS": "Loddon Mallee", "Region": "Loddon Mallee", "Postcode": "3450", "METRORUR": "Rural", "Address": "142 Cornish Street", "CAMPUS": "5010" }, "geometry": { "type": "Point", "coordinates": [ 144.212283, -37.051946 ] } },
{ "type": "Feature", "properties": { "Name": "Nathalia District Hospital", "description": null, "altitudeMode": "relativeToGround", "extrude": 1, "Town": "Nathalia", "Facility_Name": "Nathalia District Hospital", "Network_HS": "Hume", "Region": "Hume", "Postcode": "3638", "METRORUR": "Rural", "Address": "Lot 1 Elizabeth Street", "CAMPUS": "4010" }, "geometry": { "type": "Point", "coordinates": [ 145.204429, -36.054627 ] } },
{ "type": "Feature", "properties": { "Name": "Northeast Health Wangaratta", "description": null, "altitudeMode": "relativeToGround", "extrude": 1, "Town": "Wangaratta", "Facility_Name": "Northeast Health Wangaratta", "Network_HS": "Hume", "Region": "Hume", "Postcode": "3677", "METRORUR": "Rural", "Address": "35-47 Green Street", "CAMPUS": "1150" }, "geometry": { "type": "Point", "coordinates": [ 146.314301, -36.354266 ] } },
{ "type": "Feature", "properties": { "Name": "Numurkah District Health Service", "description": null, "altitudeMode": "relativeToGround", "extrude": 1, "Town": "Numurkah", "Facility_Name": "Numurkah District Health Service", "Network_HS": "Hume", "Region": "Hume", "Postcode": "3636", "METRORUR": "Rural", "Address": "2 Katamatitie Road", "CAMPUS": "3030" }, "geometry": { "type": "Point", "coordinates": [ 145.443649, -36.099561 ] } },
{ "type": "Feature", "properties": { "Name": "Omeo District Hospital", "description": null, "altitudeMode": "relativeToGround", "extrude": 1, "Town": "Omeo", "Facility_Name": "Omeo District Hospital", "Network_HS": "Gippsland", "Region": "Gippsland", "Postcode": "3898", "METRORUR": "Rural", "Address": "12 Easton Street", "CAMPUS": "2040" }, "geometry": { "type": "Point", "coordinates": [ 147.597679, -37.097606 ] } },
{ "type": "Feature", "properties": { "Name": "Orbost Regional Health", "description": null, "altitudeMode": "relativeToGround", "extrude": 1, "Town": "Orbost", "Facility_Name": "Orbost Regional Health", "Network_HS": "Gippsland", "Region": "Gippsland", "Postcode": "3888", "METRORUR": "Rural", "Address": "Boundary Road", "CAMPUS": "5050" }, "geometry": { "type": "Point", "coordinates": [ 148.465577, -37.701722 ] } },
{ "type": "Feature", "properties": { "Name": "Otway Health & Community Services", "description": null, "altitudeMode": "relativeToGround", "extrude": 1, "Town": "Apollo Bay", "Facility_Name": "Otway Health & Community Services", "Network_HS": "Barwon South Western", "Region": "Barwon South Western", "Postcode": "3233", "METRORUR": "Rural", "Address": "39-43 McLachlan Street", "CAMPUS": "2020" }, "geometry": { "type": "Point", "coordinates": [ 143.664544, -38.753886 ] } },
{ "type": "Feature", "properties": { "Name": "Portland District Health", "description": null, "altitudeMode": "relativeToGround", "extrude": 1, "Town": "Portland", "Facility_Name": "Portland District Health", "Network_HS": "Barwon South Western", "Region": "Barwon South Western", "Postcode": "3305", "METRORUR": "Rural", "Address": "Bentinck Street", "CAMPUS": "2460" }, "geometry": { "type": "Point", "coordinates": [ 141.605986, -38.340366 ] } },
{ "type": "Feature", "properties": { "Name": "Robinvale District Health Services", "description": null, "altitudeMode": "relativeToGround", "extrude": 1, "Town": "Robinvale", "Facility_Name": "Robinvale District Health Services", "Network_HS": "Loddon Mallee", "Region": "Loddon Mallee", "Postcode": "3549", "METRORUR": "Rural", "Address": "128-132 Latje Road", "CAMPUS": "3130" }, "geometry": { "type": "Point", "coordinates": [ 142.781005, -34.584113 ] } },
{ "type": "Feature", "properties": { "Name": "Rochester & Elmore District Health Service", "description": null, "altitudeMode": "relativeToGround", "extrude": 1, "Town": "Rochester", "Facility_Name": "Rochester & Elmore District Health Service", "Network_HS": "Loddon Mallee", "Region": "Loddon Mallee", "Postcode": "3561", "METRORUR": "Rural", "Address": "1 Pascoe Street", "CAMPUS": "3140" }, "geometry": { "type": "Point", "coordinates": [ 144.697659, -36.366644 ] } },
{ "type": "Feature", "properties": { "Name": "Rural Northwest Health, Hopetoun", "description": null, "altitudeMode": "relativeToGround", "extrude": 1, "Town": "Hopetoun", "Facility_Name": "Rural Northwest Health, Hopetoun", "Network_HS": "Grampians", "Region": "Grampians", "Postcode": "3396", "METRORUR": "Rural", "Address": "107 Lascells St", "CAMPUS": "1572" }, "geometry": { "type": "Point", "coordinates": [ 142.366529, -35.730346 ] } },
{ "type": "Feature", "properties": { "Name": "Rural Northwest Health, Warracknabeal", "description": null, "altitudeMode": "relativeToGround", "extrude": 1, "Town": "Warracknabeal", "Facility_Name": "Rural Northwest Health, Warracknabeal", "Network_HS": "Grampians", "Region": "Grampians", "Postcode": "3393", "METRORUR": "Rural", "Address": "Lot 1 Dimboola Road", "CAMPUS": "1571" }, "geometry": { "type": "Point", "coordinates": [ 142.382658, -36.252041 ] } },
{ "type": "Feature", "properties": { "Name": "Seymour District Memorial Hospital", "description": null, "altitudeMode": "relativeToGround", "extrude": 1, "Town": "Seymour", "Facility_Name": "Seymour District Memorial Hospital", "Network_HS": "Hume", "Region": "Hume", "Postcode": "3660", "METRORUR": "Rural", "Address": "1 Brettoneaux Street", "CAMPUS": "2190" }, "geometry": { "type": "Point", "coordinates": [ 145.138442, -37.01844 ] } },
{ "type": "Feature", "properties": { "Name": "South Gippsland Hospital", "description": null, "altitudeMode": "relativeToGround", "extrude": 1, "Town": "Foster", "Facility_Name": "South Gippsland Hospital", "Network_HS": "Gippsland", "Region": "Gippsland", "Postcode": "3960", "METRORUR": "Rural", "Address": "87 Station Road", "CAMPUS": "4240" }, "geometry": { "type": "Point", "coordinates": [ 146.205975, -38.6586 ] } },
{ "type": "Feature", "properties": { "Name": "South West Healthcare, Corangamite Campus", "description": null, "altitudeMode": "relativeToGround", "extrude": 1, "Town": "Camperdown", "Facility_Name": "South West Healthcare, Corangamite Campus", "Network_HS": "Grampians", "Region": "Grampians", "Postcode": "3260", "METRORUR": "Rural", "Address": "9 Robinson St", "CAMPUS": "3080" }, "geometry": { "type": "Point", "coordinates": [ 143.137785, -38.236362 ] } },
{ "type": "Feature", "properties": { "Name": "South West Healthcare, Warrnambool Campus", "description": null, "altitudeMode": "relativeToGround", "extrude": 1, "Town": "Warrnambool", "Facility_Name": "South West Healthcare, Warrnambool Campus", "Network_HS": "Barwon South Western", "Region": "Barwon South Western", "Postcode": "3280", "METRORUR": "Rural", "Address": "279 Koroit Street", "CAMPUS": "2160" }, "geometry": { "type": "Point", "coordinates": [ 142.473051, -38.379908 ] } },
{ "type": "Feature", "properties": { "Name": "Stawell Regional Health", "description": null, "altitudeMode": "relativeToGround", "extrude": 1, "Town": "Stawell", "Facility_Name": "Stawell Regional Health", "Network_HS": "Grampians", "Region": "Grampians", "Postcode": "3380", "METRORUR": "Rural", "Address": "27-29 Sloane Street", "CAMPUS": "2260" }, "geometry": { "type": "Point", "coordinates": [ 142.781668, -37.059474 ] } },
{ "type": "Feature", "properties": { "Name": "Swan Hill District Health, Nyah", "description": null, "altitudeMode": "relativeToGround", "extrude": 1, "Town": "Nyah West", "Facility_Name": "Swan Hill District Health, Nyah", "Network_HS": "Grampians", "Region": "Grampians", "Postcode": "3595", "METRORUR": "Rural", "Address": "Monash Ave", "CAMPUS": "1492" }, "geometry": { "type": "Point", "coordinates": [ 143.354619, -35.185761 ] } },
{ "type": "Feature", "properties": { "Name": "Swan Hill District Health, Swan Hill", "description": null, "altitudeMode": "relativeToGround", "extrude": 1, "Town": "Swan Hill", "Facility_Name": "Swan Hill District Health, Swan Hill", "Network_HS": "Loddon Mallee", "Region": "Loddon Mallee", "Postcode": "3585", "METRORUR": "Rural", "Address": "48 Splatt Street", "CAMPUS": "1491" }, "geometry": { "type": "Point", "coordinates": [ 143.556638, -35.340123 ] } },
{ "type": "Feature", "properties": { "Name": "Tallangatta Health Service", "description": null, "altitudeMode": "relativeToGround", "extrude": 1, "Town": "Tallangatta", "Facility_Name": "Tallangatta Health Service", "Network_HS": "Hume", "Region": "Hume", "Postcode": "3700", "METRORUR": "Rural", "Address": "Barree Street", "CAMPUS": "1290" }, "geometry": { "type": "Point", "coordinates": [ 147.183349, -36.213678 ] } },
{ "type": "Feature", "properties": { "Name": "Terang & Mortlake Health Service", "description": null, "altitudeMode": "relativeToGround", "extrude": 1, "Town": "Terang", "Facility_Name": "Terang & Mortlake Health Service", "Network_HS": "Barwon South Western", "Region": "Barwon South Western", "Postcode": "3264", "METRORUR": "Rural", "Address": "1 Austin Avenue", "CAMPUS": "3350" }, "geometry": { "type": "Point", "coordinates": [ 142.901429, -38.240629 ] } },
{ "type": "Feature", "properties": { "Name": "Timboon & District Healthcare Service", "description": null, "altitudeMode": "relativeToGround", "extrude": 1, "Town": "Timboon", "Facility_Name": "Timboon & District Healthcare Service", "Network_HS": "Barwon South Western", "Region": "Barwon South Western", "Postcode": "3268", "METRORUR": "Rural", "Address": "21 Hospital Road", "CAMPUS": "2360" }, "geometry": { "type": "Point", "coordinates": [ 142.975781, -38.4859 ] } },
{ "type": "Feature", "properties": { "Name": "Upper Murray Health & Community Services", "description": null, "altitudeMode": "relativeToGround", "extrude": 1, "Town": "Corryong", "Facility_Name": "Upper Murray Health & Community Services", "Network_HS": "Hume", "Region": "Hume", "Postcode": "3707", "METRORUR": "Rural", "Address": "20 Kiell Street", "CAMPUS": "2150" }, "geometry": { "type": "Point", "coordinates": [ 147.903317, -36.198867 ] } },
{ "type": "Feature", "properties": { "Name": "West Gippsland Healthcare Group", "description": null, "altitudeMode": "relativeToGround", "extrude": 1, "Town": "Warragul", "Facility_Name": "West Gippsland Healthcare Group", "Network_HS": "Gippsland", "Region": "Gippsland", "Postcode": "3820", "METRORUR": "Rural", "Address": "27 Landsborough Street", "CAMPUS": "1580" }, "geometry": { "type": "Point", "coordinates": [ 145.927643, -38.172915 ] } },
{ "type": "Feature", "properties": { "Name": "West Wimmera Health Service, Jeparit", "description": null, "altitudeMode": "relativeToGround", "extrude": 1, "Town": "Jeparit", "Facility_Name": "West Wimmera Health Service, Jeparit", "Network_HS": "Grampians", "Region": "Grampians", "Postcode": "3423", "METRORUR": "Rural", "Address": "2 Charles St", "CAMPUS": "2373" }, "geometry": { "type": "Point", "coordinates": [ 141.984599, -36.140955 ] } },
{ "type": "Feature", "properties": { "Name": "West Wimmera Health Service, Kaniva", "description": null, "altitudeMode": "relativeToGround", "extrude": 1, "Town": "Kaniva", "Facility_Name": "West Wimmera Health Service, Kaniva", "Network_HS": "Grampians", "Region": "Grampians", "Postcode": "3419", "METRORUR": "Rural", "Address": "9 Farmers St South", "CAMPUS": "2372" }, "geometry": { "type": "Point", "coordinates": [ 141.245752, -36.381422 ] } },
{ "type": "Feature", "properties": { "Name": "West Wimmera Health Service, Nhill", "description": null, "altitudeMode": "relativeToGround", "extrude": 1, "Town": "Nhill", "Facility_Name": "West Wimmera Health Service, Nhill", "Network_HS": "Grampians", "Region": "Grampians", "Postcode": "3418", "METRORUR": "Rural", "Address": "45 Nelson Street", "CAMPUS": "2371" }, "geometry": { "type": "Point", "coordinates": [ 141.655803, -36.33401 ] } },
{ "type": "Feature", "properties": { "Name": "West Wimmera Health Service, Rainbow", "description": null, "altitudeMode": "relativeToGround", "extrude": 1, "Town": "Rainbow", "Facility_Name": "West Wimmera Health Service, Rainbow", "Network_HS": "Grampians", "Region": "Grampians", "Postcode": "3424", "METRORUR": "Rural", "Address": "2 Swinbourne Ave", "CAMPUS": "2374" }, "geometry": { "type": "Point", "coordinates": [ 141.99513, -35.903671 ] } },
{ "type": "Feature", "properties": { "Name": "Western District HS, Coleraine", "description": null, "altitudeMode": "relativeToGround", "extrude": 1, "Town": "Coleraine", "Facility_Name": "Western District HS, Coleraine", "Network_HS": "Barwon South Western", "Region": "Barwon South Western", "Postcode": "3315", "METRORUR": "Rural", "Address": "119 McKebery Street", "CAMPUS": "2140" }, "geometry": { "type": "Point", "coordinates": [ 141.685669, -37.603886 ] } },
{ "type": "Feature", "properties": { "Name": "Western District Health Service, Hamilton", "description": null, "altitudeMode": "relativeToGround", "extrude": 1, "Town": "Hamilton", "Facility_Name": "Western District Health Service, Hamilton", "Network_HS": "Barwon South Western", "Region": "Barwon South Western", "Postcode": "3300", "METRORUR": "Rural", "Address": "20 Foster Street", "CAMPUS": "1071" }, "geometry": { "type": "Point", "coordinates": [ 142.029907, -37.736955 ] } },
{ "type": "Feature", "properties": { "Name": "Western District Health Service, Penshurst", "description": null, "altitudeMode": "relativeToGround", "extrude": 1, "Town": "Penshurst", "Facility_Name": "Western District Health Service, Penshurst", "Network_HS": "Barwon South Western", "Region": "Barwon South Western", "Postcode": "3289", "METRORUR": "Rural", "Address": "146 Cobb St", "CAMPUS": "1072" }, "geometry": { "type": "Point", "coordinates": [ 142.28221, -37.877766 ] } },
{ "type": "Feature", "properties": { "Name": "Wimmera Health Care Group, Dimboola", "description": null, "altitudeMode": "relativeToGround", "extrude": 1, "Town": "Dimboola", "Facility_Name": "Wimmera Health Care Group, Dimboola", "Network_HS": "Grampians", "Region": "Grampians", "Postcode": "3414", "METRORUR": "Rural", "Address": "32-36 Anderson St", "CAMPUS": "3180" }, "geometry": { "type": "Point", "coordinates": [ 142.02347, -36.450042 ] } },
{ "type": "Feature", "properties": { "Name": "Wimmera Health Care Group, Horsham", "description": null, "altitudeMode": "relativeToGround", "extrude": 1, "Town": "Horsham", "Facility_Name": "Wimmera Health Care Group, Horsham", "Network_HS": "Grampians", "Region": "Grampians", "Postcode": "3400", "METRORUR": "Rural", "Address": "83 Baillie Street", "CAMPUS": "2170" }, "geometry": { "type": "Point", "coordinates": [ 142.208592, -36.711856 ] } },
{ "type": "Feature", "properties": { "Name": "Albury Wodonga Health, Wodonga", "description": null, "altitudeMode": "relativeToGround", "extrude": 1, "Town": "Wodonga", "Facility_Name": "Albury Wodonga Health, Wodonga", "Network_HS": "Hume", "Region": "Hume", "Postcode": "3690", "METRORUR": "Rural", "Address": "69 Vermont Street", "CAMPUS": "1660" }, "geometry": { "type": "Point", "coordinates": [ 146.879825, -36.131978 ] } },
{ "type": "Feature", "properties": { "Name": "Yarram & District Health Service", "description": null, "altitudeMode": "relativeToGround", "extrude": 1, "Town": "Yarram", "Facility_Name": "Yarram & District Health Service", "Network_HS": "Gippsland", "Region": "Gippsland", "Postcode": "3971", "METRORUR": "Rural", "Address": "85 Commercial Road", "CAMPUS": "1770" }, "geometry": { "type": "Point", "coordinates": [ 146.677719, -38.556927 ] } },
{ "type": "Feature", "properties": { "Name": "Yarrawonga District Health Service", "description": null, "altitudeMode": "relativeToGround", "extrude": 1, "Town": "Yarrawonga", "Facility_Name": "Yarrawonga District Health Service", "Network_HS": "Hume", "Region": "Hume", "Postcode": "3730", "METRORUR": "Rural", "Address": "33 Piper Street", "CAMPUS": "1780" }, "geometry": { "type": "Point", "coordinates": [ 146.00662, -36.011251 ] } },
{ "type": "Feature", "properties": { "Name": "Yea & District Memorial Hospital", "description": null, "altitudeMode": "relativeToGround", "extrude": 1, "Town": "Yea", "Facility_Name": "Yea & District Memorial Hospital", "Network_HS": "Hume", "Region": "Hume", "Postcode": "3717", "METRORUR": "Rural", "Address": "45 Station Street", "CAMPUS": "3590" }, "geometry": { "type": "Point", "coordinates": [ 145.430881, -37.21366 ] } },
{ "type": "Feature", "properties": { "Name": "Melton Health", "description": null, "altitudeMode": "relativeToGround", "extrude": 1, "Town": "Melton", "Facility_Name": "Melton Health", "Network_HS": "Djerriwarrh Health Service", "Region": "North-West Metro", "Postcode": "3337", "METRORUR": "Rural", "Address": "195-209 Barries Road", "CAMPUS": "3680" }, "geometry": { "type": "Point", "coordinates": [ 144.558589, -37.686695 ] } },
{ "type": "Feature", "properties": { "Name": "Albury Wodonga Health, Albury", "description": null, "altitudeMode": "relativeToGround", "extrude": 1, "Town": "Albury", "Facility_Name": "Albury Wodonga Health, Albury", "Network_HS": "Hume", "Region": "Hume", "Postcode": "2640", "METRORUR": "Rural", "Address": "Borella Road", "CAMPUS": "1650" }, "geometry": { "type": "Point", "coordinates": [ 146.9395, -36.0795 ] } },
{ "type": "Feature", "properties": { "Name": "Austin Hospital", "description": null, "altitudeMode": "relativeToGround", "extrude": 1, "Town": "Heidelberg", "Facility_Name": "Austin Hospital", "Network_HS": "Austin Health", "Region": "North-West Metro", "Postcode": "3084", "METRORUR": "Metro", "Address": "145-163 Studley Road", "CAMPUS": "1031" }, "geometry": { "type": "Point", "coordinates": [ 145.059216, -37.757738 ] } },
{ "type": "Feature", "properties": { "Name": "Box Hill Hospital", "description": null, "altitudeMode": "relativeToGround", "extrude": 1, "Town": "Box Hill", "Facility_Name": "Box Hill Hospital", "Network_HS": "Eastern Health", "Region": "Eastern Metro", "Postcode": "3128", "METRORUR": "Metro", "Address": "51 Nelson Road", "CAMPUS": "1050" }, "geometry": { "type": "Point", "coordinates": [ 145.119757, -37.813755 ] } },
{ "type": "Feature", "properties": { "Name": "Broadmeadows Health Service", "description": null, "altitudeMode": "relativeToGround", "extrude": 1, "Town": "Broadmeadows", "Facility_Name": "Broadmeadows Health Service", "Network_HS": "Northern Health", "Region": "North-West Metro", "Postcode": "3047", "METRORUR": "Metro", "Address": "35 Johnstone Street", "CAMPUS": "2970" }, "geometry": { "type": "Point", "coordinates": [ 144.913417, -37.683982 ] } },
{ "type": "Feature", "properties": { "Name": "Bundoora Extended Care Centre", "description": null, "altitudeMode": "relativeToGround", "extrude": 1, "Town": "Bundoora", "Facility_Name": "Bundoora Extended Care Centre", "Network_HS": "Northern Health", "Region": "North-West Metro", "Postcode": "3083", "METRORUR": "Metro", "Address": "1231 Plenty Road", "CAMPUS": "1090" }, "geometry": { "type": "Point", "coordinates": [ 145.057284, -37.701765 ] } },
{ "type": "Feature", "properties": { "Name": "Calvary Health Care Bethlehem Ltd", "description": null, "altitudeMode": "relativeToGround", "extrude": 1, "Town": "Caulfield", "Facility_Name": "Calvary Health Care Bethlehem Ltd", "Network_HS": "Calvary Health Care Bethlehem", "Region": "Southern Metro", "Postcode": "3162", "METRORUR": "Metro", "Address": "476 Kooyong Road", "CAMPUS": "3050" }, "geometry": { "type": "Point", "coordinates": [ 145.013082, -37.897105 ] } },
{ "type": "Feature", "properties": { "Name": "Caritas Christi Hospice Ltd", "description": null, "altitudeMode": "relativeToGround", "extrude": 1, "Town": "Kew", "Facility_Name": "Caritas Christi Hospice Ltd", "Network_HS": "St Vincents Health", "Region": "Eastern Metro", "Postcode": "3101", "METRORUR": "Metro", "Address": "104 Studley Park Road", "CAMPUS": "2080" }, "geometry": { "type": "Point", "coordinates": [ 145.015242, -37.805083 ] } },
{ "type": "Feature", "properties": { "Name": "Casey Hospital", "description": null, "altitudeMode": "relativeToGround", "extrude": 1, "Town": "Berwick", "Facility_Name": "Casey Hospital", "Network_HS": "Southern Health", "Region": "Southern Metro", "Postcode": "3806", "METRORUR": "Metro", "Address": "52 Kangan Drive", "CAMPUS": "3660" }, "geometry": { "type": "Point", "coordinates": [ 145.345815, -38.045255 ] } },
{ "type": "Feature", "properties": { "Name": "Caulfield General Medical Centre", "description": null, "altitudeMode": "relativeToGround", "extrude": 1, "Town": "Caulfield", "Facility_Name": "Caulfield General Medical Centre", "Network_HS": "Alfred Health", "Region": "Southern Metro", "Postcode": "3162", "METRORUR": "Metro", "Address": "260-294 Kooyong Road", "CAMPUS": "1370" }, "geometry": { "type": "Point", "coordinates": [ 145.01563, -37.883626 ] } },
{ "type": "Feature", "properties": { "Name": "Craigieburn Health Service", "description": null, "altitudeMode": "relativeToGround", "extrude": 1, "Town": "Craigieburn", "Facility_Name": "Craigieburn Health Service", "Network_HS": "Northern Health", "Region": "North-West Metro", "Postcode": "3064", "METRORUR": "Metro", "Address": "350 Craigieburn Road West", "CAMPUS": "3670" }, "geometry": { "type": "Point", "coordinates": [ 144.916692, -37.595917 ] } },
{ "type": "Feature", "properties": { "Name": "Cranbourne Integrated Care Centre", "description": null, "altitudeMode": "relativeToGround", "extrude": 1, "Town": "Cranbourne", "Facility_Name": "Cranbourne Integrated Care Centre", "Network_HS": "Southern Health", "Region": "Southern Metro", "Postcode": "3977", "METRORUR": "Metro", "Address": "140 â€“ 154 Sladen Street", "CAMPUS": "2650" }, "geometry": { "type": "Point", "coordinates": [ 145.280789, -38.113052 ] } },
{ "type": "Feature", "properties": { "Name": "Dandenong Hospital", "description": null, "altitudeMode": "relativeToGround", "extrude": 1, "Town": "Dandenong", "Facility_Name": "Dandenong Hospital", "Network_HS": "Southern Health", "Region": "Southern Metro", "Postcode": "3175", "METRORUR": "Metro", "Address": "105-135 David Street", "CAMPUS": "2111" }, "geometry": { "type": "Point", "coordinates": [ 145.216359, -37.976549 ] } },
{ "type": "Feature", "properties": { "Name": "Dental Health Services Victoria", "description": null, "altitudeMode": "relativeToGround", "extrude": 1, "Town": "Carlton", "Facility_Name": "Dental Health Services Victoria", "Network_HS": "Dental Health Service Victoria", "Region": "North-West Metro", "Postcode": "3053", "METRORUR": "Metro", "Address": "720 Swanston Street", "CAMPUS": "5110" }, "geometry": { "type": "Point", "coordinates": [ 144.964425, -37.799295 ] } },
{ "type": "Feature", "properties": { "Name": "Frankston Hospital", "description": null, "altitudeMode": "relativeToGround", "extrude": 1, "Town": "Frankston", "Facility_Name": "Frankston Hospital", "Network_HS": "Peninsula Health", "Region": "Southern Metro", "Postcode": "3199", "METRORUR": "Metro", "Address": "2 Frankston-Flinders Rd", "CAMPUS": "2220" }, "geometry": { "type": "Point", "coordinates": [ 145.129653, -38.150372 ] } },
{ "type": "Feature", "properties": { "Name": "Golf Links Road Rehabilitation & PCU", "description": null, "altitudeMode": "relativeToGround", "extrude": 1, "Town": "Frankston", "Facility_Name": "Golf Links Road Rehabilitation & PCU", "Network_HS": "Peninsula Health", "Region": "Southern Metro", "Postcode": "3199", "METRORUR": "Metro", "Address": "125 Golf Links Road", "CAMPUS": "4083" }, "geometry": { "type": "Point", "coordinates": [ 145.149041, -38.173531 ] } },
{ "type": "Feature", "properties": { "Name": "Healesville & District Hospital", "description": null, "altitudeMode": "relativeToGround", "extrude": 1, "Town": "Healesville", "Facility_Name": "Healesville & District Hospital", "Network_HS": "Eastern Health", "Region": "Eastern Metro", "Postcode": "3777", "METRORUR": "Metro", "Address": "377 Maroondah Highway", "CAMPUS": "3330" }, "geometry": { "type": "Point", "coordinates": [ 145.529074, -37.64738 ] } },
{ "type": "Feature", "properties": { "Name": "Heidelberg Repatriation Hospital", "description": null, "altitudeMode": "relativeToGround", "extrude": 1, "Town": "Heidelberg Heights", "Facility_Name": "Heidelberg Repatriation Hospital", "Network_HS": "Austin Health", "Region": "North-West Metro", "Postcode": "3081", "METRORUR": "Metro", "Address": "300 Waterdale Rd", "CAMPUS": "1032" }, "geometry": { "type": "Point", "coordinates": [ 145.045407, -37.755418 ] } },
{ "type": "Feature", "properties": { "Name": "Kingston Centre", "description": null, "altitudeMode": "relativeToGround", "extrude": 1, "Town": "Cheltenham", "Facility_Name": "Kingston Centre", "Network_HS": "Southern Health", "Region": "Southern Metro", "Postcode": "3202", "METRORUR": "Metro", "Address": "400 Warrigal Rd", "CAMPUS": "2030" }, "geometry": { "type": "Point", "coordinates": [ 145.076853, -37.954662 ] } },
{ "type": "Feature", "properties": { "Name": "Maroondah Hospital", "description": null, "altitudeMode": "relativeToGround", "extrude": 1, "Town": "East Ringwood", "Facility_Name": "Maroondah Hospital", "Network_HS": "Eastern Health", "Region": "Eastern Metro", "Postcode": "3135", "METRORUR": "Metro", "Address": "1-15 Mt Dandenong Rd", "CAMPUS": "1210" }, "geometry": { "type": "Point", "coordinates": [ 145.25363, -37.806759 ] } },
{ "type": "Feature", "properties": { "Name": "Mercy Hospital for Women", "description": null, "altitudeMode": "relativeToGround", "extrude": 1, "Town": "Heidelberg", "Facility_Name": "Mercy Hospital for Women", "Network_HS": "Mercy Public Hospitals Inc", "Region": "North-West Metro", "Postcode": "3084", "METRORUR": "Metro", "Address": "163 Studley Road", "CAMPUS": "1160" }, "geometry": { "type": "Point", "coordinates": [ 145.060914, -37.756517 ] } },
{ "type": "Feature", "properties": { "Name": "Mercy Werribee Hospital", "description": null, "altitudeMode": "relativeToGround", "extrude": 1, "Town": "Werribee", "Facility_Name": "Mercy Werribee Hospital", "Network_HS": "Mercy Public Hospitals Inc", "Region": "North-West Metro", "Postcode": "3030", "METRORUR": "Metro", "Address": "300 Princes Highway", "CAMPUS": "1320" }, "geometry": { "type": "Point", "coordinates": [ 144.699874, -37.885192 ] } },
{ "type": "Feature", "properties": { "Name": "Monash Medical Centre, Clayton Campus", "description": null, "altitudeMode": "relativeToGround", "extrude": 1, "Town": "Clayton", "Facility_Name": "Monash Medical Centre, Clayton Campus", "Network_HS": "Southern Health", "Region": "Eastern Metro", "Postcode": "3168", "METRORUR": "Metro", "Address": "246 Clayton Road", "CAMPUS": "1170" }, "geometry": { "type": "Point", "coordinates": [ 145.121266, -37.920456 ] } },
{ "type": "Feature", "properties": { "Name": "Monash Medical Centre, Moorabbin Campus", "description": null, "altitudeMode": "relativeToGround", "extrude": 1, "Town": "East Bentleigh", "Facility_Name": "Monash Medical Centre, Moorabbin Campus", "Network_HS": "Southern Health", "Region": "Southern Metro", "Postcode": "3165", "METRORUR": "Metro", "Address": "867 Centre Road", "CAMPUS": "1220" }, "geometry": { "type": "Point", "coordinates": [ 145.063868, -37.921191 ] } },
{ "type": "Feature", "properties": { "Name": "O'Connell Family Centre, Grey Sisters Inc.", "description": null, "altitudeMode": "relativeToGround", "extrude": 1, "Town": "Canterbury", "Facility_Name": "O'Connell Family Centre, Grey Sisters Inc.", "Network_HS": "OConnell Family Centre (Grey Sisters) Inc.", "Region": "Eastern Metro", "Postcode": "3126", "METRORUR": "Metro", "Address": "6 Mont Albert Road", "CAMPUS": "2100" }, "geometry": { "type": "Point", "coordinates": [ 145.061443, -37.816244 ] } },
{ "type": "Feature", "properties": { "Name": "Peter MacCallum Cancer Institute", "description": null, "altitudeMode": "relativeToGround", "extrude": 1, "Town": "East Melbourne", "Facility_Name": "Peter MacCallum Cancer Institute", "Network_HS": "Peter MacCallum Cancer Institute", "Region": "North-West Metro", "Postcode": "3002", "METRORUR": "Metro", "Address": "7 St Andrews Place", "CAMPUS": "1550" }, "geometry": { "type": "Point", "coordinates": [ 144.977684, -37.811934 ] } },
{ "type": "Feature", "properties": { "Name": "Queen Elizabeth Centre", "description": null, "altitudeMode": "relativeToGround", "extrude": 1, "Town": "Noble Park", "Facility_Name": "Queen Elizabeth Centre", "Network_HS": "Queen Elizabeth Centre", "Region": "Southern Metro", "Postcode": "3174", "METRORUR": "Metro", "Address": "53 Thomas Street", "CAMPUS": "3110" }, "geometry": { "type": "Point", "coordinates": [ 145.177824, -37.97154 ] } },
{ "type": "Feature", "properties": { "Name": "Rosebud Hospital", "description": null, "altitudeMode": "relativeToGround", "extrude": 1, "Town": "Rosebud", "Facility_Name": "Rosebud Hospital", "Network_HS": "Peninsula Health", "Region": "Southern Metro", "Postcode": "3940", "METRORUR": "Metro", "Address": "1527 Point Nepean Rd", "CAMPUS": "1250" }, "geometry": { "type": "Point", "coordinates": [ 144.884568, -38.361594 ] } },
{ "type": "Feature", "properties": { "Name": "Rosebud Rehabilitaton Unit", "description": null, "altitudeMode": "relativeToGround", "extrude": 1, "Town": "Rosebud", "Facility_Name": "Rosebud Rehabilitaton Unit", "Network_HS": "Peninsula Health", "Region": "Southern Metro", "Postcode": "3939", "METRORUR": "Metro", "Address": "288 Eastbourne Road", "CAMPUS": "4082" }, "geometry": { "type": "Point", "coordinates": [ 144.897181, -38.367488 ] } },
{ "type": "Feature", "properties": { "Name": "Royal Children's Hospital", "description": null, "altitudeMode": "relativeToGround", "extrude": 1, "Town": "Parkville", "Facility_Name": "Royal Children's Hospital", "Network_HS": "Royal Childrens Hospital", "Region": "North-West Metro", "Postcode": "3052", "METRORUR": "Metro", "Address": "50 Flemington Road", "CAMPUS": "1191" }, "geometry": { "type": "Point", "coordinates": [ 144.950036, -37.795196 ] } },
{ "type": "Feature", "properties": { "Name": "Royal Melbourne Hospital - City Campus", "description": null, "altitudeMode": "relativeToGround", "extrude": 1, "Town": "Parkville", "Facility_Name": "Royal Melbourne Hospital - City Campus", "Network_HS": "Melbourne Health", "Region": "North-West Metro", "Postcode": "3050", "METRORUR": "Metro", "Address": "300 Grattan Street", "CAMPUS": "1334" }, "geometry": { "type": "Point", "coordinates": [ 144.95567, -37.79931 ] } },
{ "type": "Feature", "properties": { "Name": "Royal Melbourne Hospital - Royal Park Campus", "description": null, "altitudeMode": "relativeToGround", "extrude": 1, "Town": "Parkville", "Facility_Name": "Royal Melbourne Hospital - Royal Park Campus", "Network_HS": "Melbourne Health", "Region": "North-West Metro", "Postcode": "3052", "METRORUR": "Metro", "Address": "34-55 Poplar Road", "CAMPUS": "1335" }, "geometry": { "type": "Point", "coordinates": [ 144.948607, -37.778521 ] } },
{ "type": "Feature", "properties": { "Name": "Royal Talbot Rehabilitation Centre", "description": null, "altitudeMode": "relativeToGround", "extrude": 1, "Town": "Kew", "Facility_Name": "Royal Talbot Rehabilitation Centre", "Network_HS": "Austin Health", "Region": "Eastern Metro", "Postcode": "3101", "METRORUR": "Metro", "Address": "1 Yarra Boulevard", "CAMPUS": "3220" }, "geometry": { "type": "Point", "coordinates": [ 145.022648, -37.787839 ] } },
{ "type": "Feature", "properties": { "Name": "Royal Women's Hospital", "description": null, "altitudeMode": "relativeToGround", "extrude": 1, "Town": "Carlton", "Facility_Name": "Royal Women's Hospital", "Network_HS": "Royal Womens Hospital", "Region": "North-West Metro", "Postcode": "3050", "METRORUR": "Metro", "Address": "132 Grattan Street", "CAMPUS": "1230" }, "geometry": { "type": "Point", "coordinates": [ 144.95487, -37.798999 ] } },
{ "type": "Feature", "properties": { "Name": "Sandringham & District Memorial Hospital", "description": null, "altitudeMode": "relativeToGround", "extrude": 1, "Town": "Sandringham", "Facility_Name": "Sandringham & District Memorial Hospital", "Network_HS": "Alfred Health", "Region": "Southern Metro", "Postcode": "3191", "METRORUR": "Metro", "Address": "193 Bluff Road", "CAMPUS": "1360" }, "geometry": { "type": "Point", "coordinates": [ 145.019078, -37.960472 ] } },
{ "type": "Feature", "properties": { "Name": "St George's Health Service", "description": null, "altitudeMode": "relativeToGround", "extrude": 1, "Town": "Kew", "Facility_Name": "St George's Health Service", "Network_HS": "St Vincents Health", "Region": "Eastern Metro", "Postcode": "3101", "METRORUR": "Metro", "Address": "283 Cotham Road", "CAMPUS": "1700" }, "geometry": { "type": "Point", "coordinates": [ 145.052962, -37.809247 ] } },
{ "type": "Feature", "properties": { "Name": "St Vincent's Hospital", "description": null, "altitudeMode": "relativeToGround", "extrude": 1, "Town": "Fitzroy", "Facility_Name": "St Vincent's Hospital", "Network_HS": "St Vincents Health", "Region": "North-West Metro", "Postcode": "3065", "METRORUR": "Metro", "Address": "41 Victoria Parade", "CAMPUS": "1450" }, "geometry": { "type": "Point", "coordinates": [ 144.974203, -37.807627 ] } },
{ "type": "Feature", "properties": { "Name": "Sunshine Hospital", "description": null, "altitudeMode": "relativeToGround", "extrude": 1, "Town": "St Albans", "Facility_Name": "Sunshine Hospital", "Network_HS": "Western Health", "Region": "North-West Metro", "Postcode": "3021", "METRORUR": "Metro", "Address": "176-190 Furlong Road", "CAMPUS": "1390" }, "geometry": { "type": "Point", "coordinates": [ 144.81583, -37.760648 ] } },
{ "type": "Feature", "properties": { "Name": "The Alfred", "description": null, "altitudeMode": "relativeToGround", "extrude": 1, "Town": "Melbourne", "Facility_Name": "The Alfred", "Network_HS": "Alfred Health", "Region": "North-West Metro", "Postcode": "3004", "METRORUR": "Metro", "Address": "75 Commercial Road", "CAMPUS": "1010" }, "geometry": { "type": "Point", "coordinates": [ 144.982963, -37.845625 ] } },
{ "type": "Feature", "properties": { "Name": "The Mornington Centre", "description": null, "altitudeMode": "relativeToGround", "extrude": 1, "Town": "Mornington", "Facility_Name": "The Mornington Centre", "Network_HS": "Peninsula Health", "Region": "Southern Metro", "Postcode": "3931", "METRORUR": "Metro", "Address": "Cnr Tyalla Gve & Separation St", "CAMPUS": "4084" }, "geometry": { "type": "Point", "coordinates": [ 145.041336, -38.229007 ] } },
{ "type": "Feature", "properties": { "Name": "Angliss Hospital", "description": null, "altitudeMode": "relativeToGround", "extrude": 1, "Town": "Upper Ferntree Gully", "Facility_Name": "Angliss Hospital", "Network_HS": "Eastern Health", "Region": "Eastern Metro", "Postcode": "3156", "METRORUR": "Metro", "Address": "6 Edward Street", "CAMPUS": "1590" }, "geometry": { "type": "Point", "coordinates": [ 145.314219, -37.89802 ] } },
{ "type": "Feature", "properties": { "Name": "The Northern Hospital", "description": null, "altitudeMode": "relativeToGround", "extrude": 1, "Town": "Epping", "Facility_Name": "The Northern Hospital", "Network_HS": "Northern Health", "Region": "North-West Metro", "Postcode": "3076", "METRORUR": "Metro", "Address": "185 Cooper Street", "CAMPUS": "1280" }, "geometry": { "type": "Point", "coordinates": [ 145.014881, -37.651308 ] } },
{ "type": "Feature", "properties": { "Name": "The Peter James Centre", "description": null, "altitudeMode": "relativeToGround", "extrude": 1, "Town": "Forrest Hill", "Facility_Name": "The Peter James Centre", "Network_HS": "Eastern Health", "Region": "Eastern Metro", "Postcode": "3131", "METRORUR": "Metro", "Address": "321-345 Burwood Hwy", "CAMPUS": "2120" }, "geometry": { "type": "Point", "coordinates": [ 145.163831, -37.852278 ] } },
{ "type": "Feature", "properties": { "Name": "The Royal Victorian Eye & Ear Hospital", "description": null, "altitudeMode": "relativeToGround", "extrude": 1, "Town": "East Melbourne", "Facility_Name": "The Royal Victorian Eye & Ear Hospital", "Network_HS": "Royal Victorian Eye & Ear Hospital, The", "Region": "North-West Metro", "Postcode": "3002", "METRORUR": "Metro", "Address": "32 Gisborne Street", "CAMPUS": "1240" }, "geometry": { "type": "Point", "coordinates": [ 144.976095, -37.808767 ] } },
{ "type": "Feature", "properties": { "Name": "Tweddle Child & Family Health Service", "description": null, "altitudeMode": "relativeToGround", "extrude": 1, "Town": "Footscray", "Facility_Name": "Tweddle Child & Family Health Service", "Network_HS": "Tweddle Child & Family Health Centre", "Region": "North-West Metro", "Postcode": "3011", "METRORUR": "Metro", "Address": "53 Adelaide Street", "CAMPUS": "1900" }, "geometry": { "type": "Point", "coordinates": [ 144.88721, -37.797811 ] } },
{ "type": "Feature", "properties": { "Name": "Wantirna Health", "description": null, "altitudeMode": "relativeToGround", "extrude": 1, "Town": "Wantirna", "Facility_Name": "Wantirna Health", "Network_HS": "Eastern Health", "Region": "Eastern Metro", "Postcode": "3152", "METRORUR": "Metro", "Address": "251 Mountain Highway", "CAMPUS": "2330" }, "geometry": { "type": "Point", "coordinates": [ 145.226356, -37.84911 ] } },
{ "type": "Feature", "properties": { "Name": "Western Hospital", "description": null, "altitudeMode": "relativeToGround", "extrude": 1, "Town": "Footscray", "Facility_Name": "Western Hospital", "Network_HS": "Western Health", "Region": "North-West Metro", "Postcode": "3011", "METRORUR": "Metro", "Address": "146-152 Gordon Street", "CAMPUS": "1180" }, "geometry": { "type": "Point", "coordinates": [ 144.887294, -37.792 ] } },
{ "type": "Feature", "properties": { "Name": "Williamstown Hospital", "description": null, "altitudeMode": "relativeToGround", "extrude": 1, "Town": "Williamstown", "Facility_Name": "Williamstown Hospital", "Network_HS": "Western Health", "Region": "North-West Metro", "Postcode": "3016", "METRORUR": "Metro", "Address": "Railway Crescent", "CAMPUS": "1460" }, "geometry": { "type": "Point", "coordinates": [ 144.892465, -37.863173 ] } },
{ "type": "Feature", "properties": { "Name": "Yarra Ranges Health", "description": null, "altitudeMode": "relativeToGround", "extrude": 1, "Town": "Lilydale", "Facility_Name": "Yarra Ranges Health", "Network_HS": "Eastern Health", "Region": "Eastern Metro", "Postcode": "3140", "METRORUR": "Metro", "Address": "21-25 Clarke Street", "CAMPUS": "3690" }, "geometry": { "type": "Point", "coordinates": [ 145.351339, -37.756675 ] } },
{ "type": "Feature", "properties": { "Name": "Royal Childrens Hospital, Travancore Psych", "description": null, "altitudeMode": "relativeToGround", "extrude": 1, "Town": "Travencore", "Facility_Name": "Royal Childrens Hospital, Travancore Psych", "Network_HS": "Royal Childrens Hospital", "Region": "North-West Metro", "Postcode": "3032", "METRORUR": "Metro", "Address": "28-68 Flemington Street", "CAMPUS": "1192" }, "geometry": { "type": "Point", "coordinates": [ 144.935177, -37.782027 ] } },
{ "type": "Feature", "properties": { "Name": "Melbourne Health", "description": null, "altitudeMode": "relativeToGround", "extrude": 1, "Town": "Footscray", "Facility_Name": "Melbourne Health", "Network_HS": "Melbourne Health", "Region": "North-West Metro", "Postcode": "3011", "METRORUR": "Metro", "Address": "17 Mavis Street", "CAMPUS": "1332" }, "geometry": { "type": "Point", "coordinates": [ 144.887349, -37.791696 ] } }
]
}
